home_team,home_team,away_team,pitcher_home,pitcher_away,venue,city,state,timezone,is_dome,latitude,longitude,game_time,time_of_day,Park Factor
Twins,Twins,Athletics,"Ureña, José","Perkins, Jack",Target Field,Minneapolis,MN,America/Chicago,False,44.9817,-93.2782,1:10 PM,day,103
Royals,Royals,Rangers,"Lorenzen, Michael","Corbin, Patrick",Kauffman Stadium,Kansas City,MO,America/Chicago,False,39.0517,-94.4803,2:10 PM,day,92
Cubs,Cubs,Brewers,"Imanaga, Shota","Priester, Quinn",Wrigley Field,Chicago,IL,America/Chicago,False,41.9484,-87.6553,2:20 PM,day,101
Rockies,Rockies,Dodgers,"Dollander, Chase","Kershaw, Clayton",Coors Field,Denver,CO,America/Denver,False,39.7559,-104.9942,3:10 PM,day,112
Nationals,Nationals,Mets,"Gore, MacKenzie","Manaea, Sean",Nationals Park,Washington,DC,America/New_York,False,38.873,-77.0075,4:05 PM,day,100
Padres,Padres,Giants,"Cease, Dylan","Verlander, Justin",Petco Park,San Diego,CA,America/Los_Angeles,False,32.7073,-117.1573,4:10 PM,day,97
Orioles,Orioles,Astros,"Young, Brandon","Alexander, Jason",Oriole Park at Camden Yards,Baltimore,MD,America/New_York,False,39.2839,-76.6217,7:15 PM,night,104
Yankees,Yankees,Red Sox,"Gil, Luis","Giolito, Lucas",Yankee Stadium,Bronx,NY,America/New_York,False,40.8296,-73.9262,7:15 PM,night,95
Rays,Rays,Cardinals,"Boyle, Joe","Gray, Sonny",George M. Steinbrenner Field,St. Petersburg,FL,America/New_York,True,27.973,-82.4932,7:35 PM,night,99
