home_team_id,away_team_id,home_team,away_team,venue,city,latitude,longitude,roof_type,notes,matched_forecast_day,matched_forecast_time,temperature,wind_speed,wind_direction,humidity,precipitation,condition,game_time_et,fetched_at,game_id,date,weather_factor
158,143,MIL,PHI,American Family Field,Milwaukee,43.028,-87.9712,dome,Roof closed,2025-09-04,2025-09-04 15:00,63.0,0.0,CALM,50,0.0,Cloudy ,4:10 PM,2025-09-04 03:19:49 PM,776459,2025-09-04,0.965
134,119,PIT,LAD,PNC Park,Pittsburgh,40.4469,-80.0057,open,Roof open,2025-09-04,2025-09-04 19:00,68.4,4.3,W,74,0.0,Partly Cloudy ,6:40 PM,2025-09-04 03:19:49 PM,776461,2025-09-04,0.992
139,114,TB,CLE,George M. Steinbrenner Field,St. Petersburg,27.973,-82.4932,dome,Roof closed,2025-09-04,2025-09-04 20:00,85.1,0.0,CALM,94,0.0,Heavy rain,7:35 PM,2025-09-04 03:19:49 PM,776458,2025-09-04,1.076
118,108,KC,LAA,Kauffman Stadium,Kansas City,39.0517,-94.4803,open,Roof open,2025-09-04,2025-09-04 19:00,74.7,9.2,WSW,52,0.0,Sunny,7:40 PM,2025-09-04 03:19:50 PM,776463,2025-09-04,1.024
142,145,MIN,CWS,Target Field,Minneapolis,44.9817,-93.2782,open,Roof open,2025-09-04,2025-09-04 19:00,57.6,4.0,ENE,91,0.06,Light rain,7:40 PM,2025-09-04 03:19:50 PM,776462,2025-09-04,0.938
117,147,HOU,NYY,Daikin Park,Houston,29.7574,-95.3566,dome,Roof closed,2025-09-04,2025-09-04 19:00,92.4,0.0,CALM,51,0.0,Cloudy ,7:40 PM,2025-09-04 03:19:50 PM,776464,2025-09-04,1.112
