home_team_id,away_team_id,home_team,away_team,venue,city,latitude,longitude,roof_type,notes,matched_forecast_day,matched_forecast_time,temperature,wind_speed,wind_direction,humidity,precipitation,condition,game_time_et,fetched_at,game_id,date,weather_factor
110,134,BAL,PIT,Oriole Park at Camden Yards,Baltimore,39.2839,-76.6217,open,Roof open,2025-09-11,2025-09-11 13:00,80.6,3.4,NNE,45,0.0,Partly Cloudy ,1:05 PM,2025-09-11 03:23:06 PM,776372,2025-09-11,1.053
145,139,CWS,TB,Rate Field,Chicago,41.83,-87.6339,open,Roof open,2025-09-11,2025-09-11 13:00,72.7,7.6,ENE,53,0.0,Sunny,2:10 PM,2025-09-11 03:23:08 PM,776364,2025-09-11,1.014
141,117,TOR,HOU,Rogers Centre,Toronto,43.6414,-79.3894,dome,Roof closed,2025-09-11,2025-09-11 15:00,76.9,0.0,CALM,49,0.0,Sunny,3:07 PM,2025-09-11 03:23:09 PM,776369,2025-09-11,1.034
146,120,MIA,WSH,loanDepot park,Miami,25.778,-80.2195,dome,Roof closed,2025-09-11,2025-09-11 19:00,82.6,0.0,CALM,91,0.0,Partly Cloudy ,6:40 PM,2025-09-11 03:23:09 PM,776367,2025-09-11,1.063
147,116,NYY,DET,Yankee Stadium,Bronx,40.8296,-73.9262,open,Roof open,2025-09-11,2025-09-11 19:00,74.8,7.4,NNE,49,0.0,Sunny,7:05 PM,2025-09-11 03:23:09 PM,776368,2025-09-11,1.024
114,118,CLE,KC,Progressive Field,Cleveland,41.4962,-81.6852,open,Roof open,2025-09-11,2025-09-11 19:00,71.6,4.0,NNW,61,0.0,Sunny,7:15 PM,2025-09-11 03:23:09 PM,776370,2025-09-11,1.008
143,121,PHI,NYM,Citizens Bank Park,Philadelphia,39.9057,-75.1665,open,Roof open,2025-09-11,2025-09-11 19:00,76.5,2.7,NNW,46,0.0,Partly Cloudy ,7:15 PM,2025-09-11 03:23:10 PM,776371,2025-09-11,1.032
135,115,SD,COL,Petco Park,San Diego,32.7073,-117.1573,open,Roof open,2025-09-11,2025-09-11 19:00,68.1,8.1,W,83,0.0,Cloudy ,9:40 PM,2025-09-11 03:23:10 PM,776365,2025-09-11,0.99
136,108,SEA,LAA,T-Mobile Park,Seattle,47.5914,-122.3325,open,Roof open,2025-09-11,2025-09-11 19:00,69.1,1.1,NNE,66,0.0,Overcast ,9:40 PM,2025-09-11 03:23:10 PM,776362,2025-09-11,0.995
