date,game_time,home_team_id,away_team_id,venue,city,latitude,longitude,roof_type,game_id
2025-09-04,4:10 PM,158,143,American Family Field,Milwaukee,43.028,-87.9712,dome,776459
2025-09-04,6:40 PM,134,119,PNC Park,Pittsburgh,40.4469,-80.0057,open,776461
2025-09-04,7:35 PM,139,114,George M. Steinbrenner Field,St. Petersburg,27.973,-82.4932,dome,776458
2025-09-04,7:40 PM,118,108,Kauffman Stadium,Kansas City,39.0517,-94.4803,open,776463
2025-09-04,7:40 PM,142,145,Target Field,Minneapolis,44.9817,-93.2782,open,776462
2025-09-04,7:40 PM,117,147,Daikin Park,Houston,29.7574,-95.3566,dome,776464
