date,game_time,home_team_id,away_team_id,venue,city,latitude,longitude,roof_type,game_id
2025-09-11,1:05 PM,110,134,Oriole Park at Camden Yards,Baltimore,39.2839,-76.6217,open,776372
2025-09-11,2:10 PM,145,139,Rate Field,Chicago,41.83,-87.6339,open,776364
2025-09-11,3:07 PM,141,117,Rogers Centre,Toronto,43.6414,-79.3894,dome,776369
2025-09-11,6:40 PM,146,120,loanDepot park,Miami,25.778,-80.2195,dome,776367
2025-09-11,7:05 PM,147,116,Yankee Stadium,Bronx,40.8296,-73.9262,open,776368
2025-09-11,7:15 PM,114,118,Progressive Field,Cleveland,41.4962,-81.6852,open,776370
2025-09-11,7:15 PM,143,121,Citizens Bank Park,Philadelphia,39.9057,-75.1665,open,776371
2025-09-11,9:40 PM,135,115,Petco Park,San Diego,32.7073,-117.1573,open,776365
2025-09-11,9:40 PM,136,108,T-Mobile Park,Seattle,47.5914,-122.3325,open,776362
